{"properties":[{"price":2462622,"sqm":148,"num_rooms":5,"floor":1,"num_floors":1,"elevator":0,"parking":"single","id":"d3bee93f466345f188d83c73d2664062","address":{"address":"1745 T Street Southeast","city":"Washington","state":"DC","postalCode":"20020","coordinates":{"lat":38.867033,"lng":-76.979235}}},{"price":"2660090","sqm":84,"num_rooms":4,"floor":1,"num_floors":7,"elevator":0,"parking":"without","id":"372959b6cbf5494d801fd762ddd63507","address":{"address":"6007 Applegate Lane","city":"Louisville","state":"KY","postalCode":"40219","coordinates":{"lat":38.1343013,"lng":-85.6498512}}},{"price":2517839,"sqm":96,"num_rooms":4,"floor":7,"num_floors":9,"elevator":1,"parking":"single","id":"3f080769031b4e2aa94aaf9239cb4087","address":{"address":"560 Penstock Drive","city":"Grass Valley","state":"CA","postalCode":"95945","coordinates":{"lat":39.213076,"lng":-121.077583}}},{"price":1620770,"sqm":139,"num_rooms":5,"floor":4,"num_floors":6,"elevator":1,"parking":"without","id":"95d44d66be494b739b9791a3cb9ef2a1","address":{"address":"150 Carter Street","city":"Manchester","state":"CT","postalCode":"06040","coordinates":{"lat":41.76556000000001,"lng":-72.473091}}},{"price":704005,"sqm":62,"num_rooms":3,"floor":5,"num_floors":5,"elevator":0,"parking":"double","id":"e53c16d25bda40f7befd4b918e718133","address":{"address":"2721 Lindsay Avenue","city":"Louisville","state":"KY","postalCode":"40206","coordinates":{"lat":38.263793,"lng":-85.700243}}},{"price":830994,"sqm":73,"num_rooms":3.5,"floor":3,"num_floors":8,"elevator":1,"parking":"without","id":"f236142ae02442f0a0c215e9d76fabc4","address":{"address":"18 Densmore Drive","city":"Essex","state":"VT","postalCode":"05452","coordinates":{"lat":44.492953,"lng":-73.101883}}},{"price":2809852,"sqm":98,"num_rooms":4,"floor":1,"num_floors":3,"elevator":0,"parking":"double","id":"2702ee580e85484a8134c0e130edcf29","address":{"address":"637 Britannia Drive","city":"Vallejo","state":"CA","postalCode":"94591","coordinates":{"lat":38.10476999999999,"lng":-122.193849}}},{"price":2054584,"sqm":99,"num_rooms":4.5,"floor":1,"num_floors":5,"elevator":1,"parking":"without","id":"98f5204da2ed4d8c80d4d30ca7b57350","address":{"address":"5601 West Crocus Drive","city":"Glendale","state":"AZ","postalCode":"85306","coordinates":{"lat":33.6152469,"lng":-112.179737}}},{"price":1614989,"sqm":90,"num_rooms":4,"floor":1,"num_floors":5,"elevator":1,"parking":"without","id":"ec480333fb3a46e7833b759030e8c1cd","address":{"address":"5403 Illinois Avenue","city":"Nashville","state":"TN","postalCode":"37209","coordinates":{"lat":36.157077,"lng":-86.853827}}},{"price":1242116,"sqm":57,"num_rooms":3,"floor":4,"num_floors":4,"elevator":0,"parking":"without","id":"c80229fc48e94c118488992612622a0f","address":{"address":"8821 West Myrtle Avenue","city":"Glendale","state":"AZ","postalCode":"85305","coordinates":{"lat":33.5404296,"lng":-112.2488391}}},{"price":410672,"sqm":"48.0","num_rooms":3,"floor":1,"num_floors":4,"elevator":0,"parking":null,"id":"82d82f1ce11e465d9e582fbc91d151ef","address":{"address":"2203 7th Street Road","city":"Louisville","state":"KY","postalCode":"40208","coordinates":{"lat":38.218107,"lng":-85.779006}}},{"price":1282902,"sqm":50,"num_rooms":3,"floor":4,"num_floors":5,"elevator":0,"parking":"without","id":"eb49c3bf01d44dd2a6e004dd21ebd167","address":{"address":"6463 Vrain Street","city":"Arvada","state":"CO","postalCode":"80003","coordinates":{"lat":39.814056,"lng":-105.046913}}},{"price":2037750,"sqm":105,"num_rooms":4,"floor":5,"num_floors":5,"elevator":1,"parking":"without","id":"73f90f89c68c490da37b40c08f5fcf57","address":{"address":"87 Horseshoe Drive","city":"West Windsor","state":"VT","postalCode":"05037","coordinates":{"lat":43.4731793,"lng":-72.4967532}}},{"price":740684,"sqm":55,"num_rooms":3,"floor":2,"num_floors":2,"elevator":0,"parking":"single","id":"d854c625fbf948ea913bc156f2a271e9","address":{"address":"60 Desousa Drive","city":"Manchester","state":"CT","postalCode":"06040","coordinates":{"lat":41.7409259,"lng":-72.5619104}}},{"price":"1,095,075","sqm":58,"num_rooms":3.5,"floor":2,"num_floors":4,"elevator":0,"parking":"double","id":"2a02968e97744df5ae403980b5fec29f","address":{"address":"4 Old Colony Way","city":"Yarmouth","state":"MA","postalCode":"02664","coordinates":{"lat":41.697168,"lng":-70.189992}}},{"price":"2140342.00","sqm":110,"num_rooms":4,"floor":-1,"num_floors":3,"elevator":0,"parking":"without","id":"ffe2c0e80c93455fae327e300be7fc2e","address":{"address":"314 South 17th Street","city":"Nashville","state":"TN","postalCode":"37206","coordinates":{"lat":36.1719075,"lng":-86.740228}}},{"price":2952170,"sqm":"128.0","num_rooms":4,"floor":2,"num_floors":3,"elevator":0,"parking":"without","id":"625d65ae027348b0afeb7fb8ec2380d0","address":{"address":"1649 Timberridge Court","city":"Fayetteville","state":"AR","postalCode":"72704","coordinates":{"lat":36.084563,"lng":-94.206082}}},{"price":1485312,"sqm":100,"num_rooms":4,"floor":0,"num_floors":0,"elevator":0,"parking":"double","id":"70f621c9eed144fa959210ce473d02a5","address":{"address":"5461 West Shades Valley Drive","city":"Montgomery","state":"AL","postalCode":"36108","coordinates":{"lat":32.296422,"lng":-86.34280299999999}}},{"price":2565779,"sqm":127,"num_rooms":5,"floor":9,"num_floors":14,"elevator":1,"parking":"without","id":"86c0c2a3d3124edaaddb3f1a1ab07728","address":{"address":"629 Debbie Drive","city":"Nashville","state":"TN","postalCode":"37076","coordinates":{"lat":36.208114,"lng":-86.58621199999999}}},{"price":882056,"sqm":87,"num_rooms":4,"floor":3,"num_floors":3,"elevator":0,"parking":"without","id":"dfc0e0ccc7394f82936ea9fea474f95e","address":{"address":"22572 Toreador Drive","city":"Salinas","state":"CA","postalCode":"93908","coordinates":{"lat":36.602449,"lng":-121.699071}}},{"price":"2179575","sqm":97,"num_rooms":4,"floor":9,"num_floors":"17.0","elevator":1,"parking":"single","id":"c2d14492e0c04827afc421c6f0bd035e","address":{"address":"3034 Mica Street","city":"Fayetteville","state":"AR","postalCode":"72704","coordinates":{"lat":36.0807929,"lng":-94.2066449}}},{"price":2358186,"sqm":103,"num_rooms":4,"floor":5,"num_floors":6,"elevator":1,"parking":"single","id":"34fc86a6db574fe199a706db87879775","address":{"address":"3729 East Mission Boulevard","city":"Fayetteville","state":"AR","postalCode":"72703","coordinates":{"lat":36.0919353,"lng":-94.10654219999999}}},{"price":2206036,"sqm":121,"num_rooms":5,"floor":1,"num_floors":3,"elevator":0,"parking":"single","id":"80462d5dcd1a49f4996b1ffe532efc20","address":{"address":"5114 Greentree Drive","city":"Nashville","state":"TN","postalCode":"37211","coordinates":{"lat":36.0618539,"lng":-86.738508}}},{"price":1693448,"sqm":58,"num_rooms":3,"floor":2,"num_floors":4,"elevator":0,"parking":"without","id":"36a5fd2f8acb45eb9706b36a980e8789","address":{"address":"3466 Southview Avenue","city":"Montgomery","state":"AL","postalCode":"36111","coordinates":{"lat":32.341227,"lng":-86.2846859}}},{"price":1376090,"sqm":99,"num_rooms":4,"floor":11,"num_floors":17,"elevator":1,"parking":"double","id":"4800e70cafd8438c94c67ee06a0f127c","address":{"address":"1513 Cathy Street","city":"Savannah","state":"GA","postalCode":"31415","coordinates":{"lat":32.067416,"lng":-81.125331}}},{"price":"1,327,278","sqm":96,"num_rooms":4,"floor":9,"num_floors":9,"elevator":1,"parking":"without","id":"5329c1100fc54d3884a208ed9af15e73","address":{"address":"600 West 19th Avenue APT B","city":"Anchorage","state":"AK","postalCode":"99503","coordinates":{"lat":61.203115,"lng":-149.894107}}},{"price":2105651,"sqm":100,"num_rooms":4,"floor":0,"num_floors":1,"elevator":0,"parking":"without","id":"1354570e40624cfbb72f1a232292d8b6","address":{"address":"1208 Elkader Court North","city":"Nashville","state":"TN","postalCode":"37013","coordinates":{"lat":36.080049,"lng":-86.60116099999999}}},{"price":1862509,"sqm":48,"num_rooms":2,"floor":3,"num_floors":6,"elevator":1,"parking":"without","id":"ba03d6dbcb4b4957a668b0b1c1a956ba","address":{"address":"210 Green Road","city":"Manchester","state":"CT","postalCode":"06042","coordinates":{"lat":41.7909099,"lng":-72.51195129999999}}},{"price":1949826,"sqm":145,"num_rooms":6,"floor":2,"num_floors":3,"elevator":0,"parking":"without","id":"5c73e82b6b2f4e62a547fd7069eeb518","address":{"address":"49548 Road 200","city":"O'Neals","state":"CA","postalCode":"93645","coordinates":{"lat":37.153463,"lng":-119.648192}}},{"price":2652419,"sqm":100,"num_rooms":4,"floor":2,"num_floors":3,"elevator":0,"parking":"without","id":"adcba4b65a224c63b1df6ef398512477","address":{"address":"81 Seaton Place Northwest","city":"Washington","state":"DC","postalCode":"20001","coordinates":{"lat":38.9149499,"lng":-77.01170259999999}}}],"total":30}